{
"type": "FeatureCollection",
"name": "canada_wildfires_clean",
"crs": { "type": "name", "properties": { "name": "urn:ogc:def:crs:OGC:1.3:CRS84" } },
"features": [
{ "type": "Feature", "properties": { "agency": "bc", "firename": " G80320", "startdate": "2025-05-12T02:07:00Z", "hectares": 130.0, "stage_of_control": "OC", "timezone": "PDT", "response_type": " MON", "acres": 321.0, "days_burning": 10, "startdate_clean": "May 12 at 02:07 a.m. PDT" }, "geometry": { "type": "Point", "coordinates": [ -121.008, 58.3677 ] } },
{ "type": "Feature", "properties": { "agency": "pc", "firename": " 2025BA3", "startdate": "2025-05-10T21:27:21Z", "hectares": 65.0, "stage_of_control": "OC", "timezone": "MDT", "response_type": " FUL", "acres": 161.0, "days_burning": 12, "startdate_clean": "May 10 at 09:27 p.m. MDT" }, "geometry": { "type": "Point", "coordinates": [ -115.719, 51.5112 ] } },
{ "type": "Feature", "properties": { "agency": "bc", "firename": " G90323", "startdate": "2025-05-12T22:27:00Z", "hectares": 1877.0, "stage_of_control": "OC", "timezone": "PDT", "response_type": " FUL", "acres": 4638.0, "days_burning": 10, "startdate_clean": "May 12 at 10:27 p.m. PDT" }, "geometry": { "type": "Point", "coordinates": [ -121.728, 59.6552 ] } },
{ "type": "Feature", "properties": { "agency": "bc", "firename": " G90205", "startdate": "2025-05-02T01:11:00Z", "hectares": 133.0, "stage_of_control": "OC", "timezone": "PDT", "response_type": " FUL", "acres": 329.0, "days_burning": 20, "startdate_clean": "May 2 at 01:11 a.m. PDT" }, "geometry": { "type": "Point", "coordinates": [ -120.42, 59.31 ] } },
{ "type": "Feature", "properties": { "agency": "bc", "firename": " G90216", "startdate": "2025-05-02T20:35:00Z", "hectares": 418.0, "stage_of_control": "OC", "timezone": "PDT", "response_type": " FUL", "acres": 1033.0, "days_burning": 20, "startdate_clean": "May 2 at 08:35 p.m. PDT" }, "geometry": { "type": "Point", "coordinates": [ -122.178, 59.344 ] } },
{ "type": "Feature", "properties": { "agency": "bc", "firename": " G90312", "startdate": "2025-05-10T04:03:00Z", "hectares": 355.0, "stage_of_control": "OC", "timezone": "PDT", "response_type": " MON", "acres": 877.0, "days_burning": 12, "startdate_clean": "May 10 at 04:03 a.m. PDT" }, "geometry": { "type": "Point", "coordinates": [ -122.304, 59.3125 ] } },
{ "type": "Feature", "properties": { "agency": "bc", "firename": " G90336", "startdate": "2025-05-16T01:16:00Z", "hectares": 47.0, "stage_of_control": "OC", "timezone": "PDT", "response_type": " MOD", "acres": 116.0, "days_burning": 6, "startdate_clean": "May 16 at 01:16 a.m. PDT" }, "geometry": { "type": "Point", "coordinates": [ -122.055, 59.3052 ] } },
{ "type": "Feature", "properties": { "agency": "on", "firename": " SLK_FIRE_003", "startdate": "2025-05-13T18:58:00Z", "hectares": 1849.3, "stage_of_control": "OC", "timezone": "GMT", "response_type": " FUL", "acres": 4570.0, "days_burning": 9, "startdate_clean": "May 13 at 06:58 p.m. GMT" }, "geometry": { "type": "Point", "coordinates": [ -90.7078, 50.2532 ] } },
{ "type": "Feature", "properties": { "agency": "sk", "firename": " 25DN-OLIR01", "startdate": "2025-05-05T15:20:53Z", "hectares": 1515.0, "stage_of_control": "OC", "timezone": "CST", "response_type": " MOD", "acres": 3744.0, "days_burning": 17, "startdate_clean": "May 5 at 03:20 p.m. CST" }, "geometry": { "type": "Point", "coordinates": [ -109.867, 53.634 ] } },
{ "type": "Feature", "properties": { "agency": "mb", "firename": " EA061", "startdate": "2025-05-12T05:00:00Z", "hectares": 101689.0, "stage_of_control": "OC", "timezone": "CDT", "response_type": " MOD", "acres": 251274.0, "days_burning": 10, "startdate_clean": "May 12 at 05:00 a.m. CDT" }, "geometry": { "type": "Point", "coordinates": [ -95.6208, 50.3997 ] } },
{ "type": "Feature", "properties": { "agency": "mb", "firename": " EA063", "startdate": "2025-05-15T05:00:00Z", "hectares": 1642.0, "stage_of_control": "OC", "timezone": "CDT", "response_type": " FUL", "acres": 4057.0, "days_burning": 7, "startdate_clean": "May 15 at 05:00 a.m. CDT" }, "geometry": { "type": "Point", "coordinates": [ -95.1575, 49.8594 ] } },
{ "type": "Feature", "properties": { "agency": "on", "firename": " FOR_FIRE_004", "startdate": "2025-05-12T22:00:00Z", "hectares": 3593.0, "stage_of_control": "OC", "timezone": "GMT", "response_type": " FUL", "acres": 8878.0, "days_burning": 10, "startdate_clean": "May 12 at 10:00 p.m. GMT" }, "geometry": { "type": "Point", "coordinates": [ -91.2767, 48.7218 ] } },
{ "type": "Feature", "properties": { "agency": "on", "firename": " KEN_FIRE_020", "startdate": "2025-05-12T21:24:00Z", "hectares": 31276.1, "stage_of_control": "OC", "timezone": "GMT", "response_type": " FUL", "acres": 77283.0, "days_burning": 10, "startdate_clean": "May 12 at 09:24 p.m. GMT" }, "geometry": { "type": "Point", "coordinates": [ -95.0845, 49.7863 ] } },
{ "type": "Feature", "properties": { "agency": "bc", "firename": " G90305", "startdate": "2025-05-09T03:28:00Z", "hectares": 1412.0, "stage_of_control": "OC", "timezone": "PDT", "response_type": " MON", "acres": 3489.0, "days_burning": 13, "startdate_clean": "May 9 at 03:28 a.m. PDT" }, "geometry": { "type": "Point", "coordinates": [ -122.884, 59.3569 ] } },
{ "type": "Feature", "properties": { "agency": "sk", "firename": " 25LX-CLIR01", "startdate": "2025-05-07T22:26:34Z", "hectares": 742.0, "stage_of_control": "OC", "timezone": "CST", "response_type": " MOD", "acres": 1833.0, "days_burning": 15, "startdate_clean": "May 7 at 10:26 p.m. CST" }, "geometry": { "type": "Point", "coordinates": [ -108.201, 54.8605 ] } },
{ "type": "Feature", "properties": { "agency": "mb", "firename": " WE015", "startdate": "2025-05-19T05:00:00Z", "hectares": 40.0, "stage_of_control": "OC", "timezone": "CDT", "response_type": " FUL", "acres": 99.0, "days_burning": 3, "startdate_clean": "May 19 at 05:00 a.m. CDT" }, "geometry": { "type": "Point", "coordinates": [ -101.486, 54.5542 ] } },
{ "type": "Feature", "properties": { "agency": "sk", "firename": " 25LA-JAYSMITH", "startdate": "2025-05-20T20:57:05Z", "hectares": 1000.0, "stage_of_control": "OC", "timezone": "CST", "response_type": " MOD", "acres": 2471.0, "days_burning": 2, "startdate_clean": "May 20 at 08:57 p.m. CST" }, "geometry": { "type": "Point", "coordinates": [ -104.043, 56.0058 ] } },
{ "type": "Feature", "properties": { "agency": "mb", "firename": " NO002", "startdate": "2025-05-07T05:00:00Z", "hectares": 1400.9, "stage_of_control": "OC", "timezone": "CDT", "response_type": " FUL", "acres": 3462.0, "days_burning": 15, "startdate_clean": "May 7 at 05:00 a.m. CDT" }, "geometry": { "type": "Point", "coordinates": [ -100.937, 56.9142 ] } },
{ "type": "Feature", "properties": { "agency": "sk", "firename": " 25DB-WOLF", "startdate": "2025-05-19T20:02:39Z", "hectares": 1100.0, "stage_of_control": "OC", "timezone": "CST", "response_type": " MOD", "acres": 2718.0, "days_burning": 3, "startdate_clean": "May 19 at 08:02 p.m. CST" }, "geometry": { "type": "Point", "coordinates": [ -102.576, 54.633 ] } },
{ "type": "Feature", "properties": { "agency": "sk", "firename": " 25DB-POINT", "startdate": "2025-05-19T17:18:05Z", "hectares": 750.0, "stage_of_control": "OC", "timezone": "CST", "response_type": " MOD", "acres": 1853.0, "days_burning": 3, "startdate_clean": "May 19 at 05:18 p.m. CST" }, "geometry": { "type": "Point", "coordinates": [ -103.031, 55.1158 ] } },
{ "type": "Feature", "properties": { "agency": "sk", "firename": " 25LF-CAMP", "startdate": "2025-05-06T23:08:36Z", "hectares": 42451.0, "stage_of_control": "OC", "timezone": "CST", "response_type": " FUL", "acres": 104896.0, "days_burning": 16, "startdate_clean": "May 6 at 11:08 p.m. CST" }, "geometry": { "type": "Point", "coordinates": [ -104.568, 53.7455 ] } },
{ "type": "Feature", "properties": { "agency": "mb", "firename": " NO006", "startdate": "2025-05-21T05:00:00Z", "hectares": 435.0, "stage_of_control": "OC", "timezone": "CDT", "response_type": " FUL", "acres": 1075.0, "days_burning": 1, "startdate_clean": "May 21 at 05:00 a.m. CDT" }, "geometry": { "type": "Point", "coordinates": [ -97.8719, 54.6311 ] } },
{ "type": "Feature", "properties": { "agency": "mb", "firename": " WE017", "startdate": "2025-05-21T05:00:00Z", "hectares": 424.0, "stage_of_control": "OC", "timezone": "CDT", "response_type": " FUL", "acres": 1048.0, "days_burning": 1, "startdate_clean": "May 21 at 05:00 a.m. CDT" }, "geometry": { "type": "Point", "coordinates": [ -101.325, 55.0097 ] } },
{ "type": "Feature", "properties": { "agency": "bc", "firename": " G80352", "startdate": "2025-05-20T00:11:00Z", "hectares": 118.0, "stage_of_control": "OC", "timezone": "PDT", "response_type": " FUL", "acres": 292.0, "days_burning": 2, "startdate_clean": "May 20 at 12:11 a.m. PDT" }, "geometry": { "type": "Point", "coordinates": [ -123.182, 57.4485 ] } },
{ "type": "Feature", "properties": { "agency": "sk", "firename": " 25LA-PISEW", "startdate": "2025-05-21T17:54:29Z", "hectares": 3460.0, "stage_of_control": "OC", "timezone": "CST", "response_type": " FUL", "acres": 8550.0, "days_burning": 1, "startdate_clean": "May 21 at 05:54 p.m. CST" }, "geometry": { "type": "Point", "coordinates": [ -105.987, 55.1392 ] } },
{ "type": "Feature", "properties": { "agency": "ab", "firename": " GWF-028-2025", "startdate": "2025-05-22T19:35:00Z", "hectares": 40.0, "stage_of_control": "OC", "timezone": "MDT", "response_type": " FUL", "acres": 99.0, "days_burning": 0, "startdate_clean": "May 22 at 07:35 p.m. MDT" }, "geometry": { "type": "Point", "coordinates": [ -119.339, 55.9266 ] } },
{ "type": "Feature", "properties": { "agency": "sk", "firename": " 25LF-SHOE", "startdate": "2025-05-07T22:21:40Z", "hectares": 21522.0, "stage_of_control": "OC", "timezone": "CST", "response_type": " FUL", "acres": 53181.0, "days_burning": 15, "startdate_clean": "May 7 at 10:21 p.m. CST" }, "geometry": { "type": "Point", "coordinates": [ -104.858, 54.209 ] } }
]
}
