{
"type": "FeatureCollection",
"name": "canada_wildfires_clean",
"crs": { "type": "name", "properties": { "name": "urn:ogc:def:crs:OGC:1.3:CRS84" } },
"features": [
{ "type": "Feature", "properties": { "agency": "bc", "firename": " G90205", "startdate": "2025-05-02T01:11:00Z", "hectares": 133.0, "stage_of_control": "OC", "timezone": "PDT", "response_type": " FUL", "acres": 329.0, "days_burning": 25, "startdate_clean": "May 2 at 01:11 a.m. PDT" }, "geometry": { "type": "Point", "coordinates": [ -120.42, 59.31 ] } },
{ "type": "Feature", "properties": { "agency": "bc", "firename": " G90216", "startdate": "2025-05-02T20:35:00Z", "hectares": 418.0, "stage_of_control": "OC", "timezone": "PDT", "response_type": " FUL", "acres": 1033.0, "days_burning": 25, "startdate_clean": "May 2 at 08:35 p.m. PDT" }, "geometry": { "type": "Point", "coordinates": [ -122.178, 59.344 ] } },
{ "type": "Feature", "properties": { "agency": "mb", "firename": " NO006", "startdate": "2025-05-21T05:00:00Z", "hectares": 1500.0, "stage_of_control": "OC", "timezone": "CDT", "response_type": " FUL", "acres": 3706.0, "days_burning": 6, "startdate_clean": "May 21 at 05:00 a.m. CDT" }, "geometry": { "type": "Point", "coordinates": [ -97.8967, 54.6267 ] } },
{ "type": "Feature", "properties": { "agency": "bc", "firename": " G90305", "startdate": "2025-05-09T03:28:00Z", "hectares": 1412.0, "stage_of_control": "OC", "timezone": "PDT", "response_type": " FUL", "acres": 3489.0, "days_burning": 18, "startdate_clean": "May 9 at 03:28 a.m. PDT" }, "geometry": { "type": "Point", "coordinates": [ -122.884, 59.3569 ] } },
{ "type": "Feature", "properties": { "agency": "bc", "firename": " G90312", "startdate": "2025-05-10T04:03:00Z", "hectares": 355.0, "stage_of_control": "OC", "timezone": "PDT", "response_type": " FUL", "acres": 877.0, "days_burning": 17, "startdate_clean": "May 10 at 04:03 a.m. PDT" }, "geometry": { "type": "Point", "coordinates": [ -122.304, 59.3125 ] } },
{ "type": "Feature", "properties": { "agency": "bc", "firename": " G80320", "startdate": "2025-05-12T02:07:00Z", "hectares": 130.0, "stage_of_control": "OC", "timezone": "PDT", "response_type": " FUL", "acres": 321.0, "days_burning": 15, "startdate_clean": "May 12 at 02:07 a.m. PDT" }, "geometry": { "type": "Point", "coordinates": [ -121.008, 58.3677 ] } },
{ "type": "Feature", "properties": { "agency": "bc", "firename": " G90323", "startdate": "2025-05-12T22:27:00Z", "hectares": 2329.0, "stage_of_control": "OC", "timezone": "PDT", "response_type": " FUL", "acres": 5755.0, "days_burning": 15, "startdate_clean": "May 12 at 10:27 p.m. PDT" }, "geometry": { "type": "Point", "coordinates": [ -121.728, 59.6552 ] } },
{ "type": "Feature", "properties": { "agency": "sk", "firename": " 25DB-POINT", "startdate": "2025-05-19T17:18:05Z", "hectares": 900.0, "stage_of_control": "OC", "timezone": "CST", "response_type": " MOD", "acres": 2224.0, "days_burning": 8, "startdate_clean": "May 19 at 05:18 p.m. CST" }, "geometry": { "type": "Point", "coordinates": [ -103.031, 55.1158 ] } },
{ "type": "Feature", "properties": { "agency": "mb", "firename": " NO002", "startdate": "2025-05-07T05:00:00Z", "hectares": 7064.9, "stage_of_control": "OC", "timezone": "CDT", "response_type": " FUL", "acres": 17457.0, "days_burning": 20, "startdate_clean": "May 7 at 05:00 a.m. CDT" }, "geometry": { "type": "Point", "coordinates": [ -100.937, 56.9142 ] } },
{ "type": "Feature", "properties": { "agency": "mb", "firename": " NO007", "startdate": "2025-05-24T05:00:00Z", "hectares": 37.5, "stage_of_control": "OC", "timezone": "CDT", "response_type": " FUL", "acres": 93.0, "days_burning": 3, "startdate_clean": "May 24 at 05:00 a.m. CDT" }, "geometry": { "type": "Point", "coordinates": [ -98.5919, 54.9339 ] } },
{ "type": "Feature", "properties": { "agency": "mb", "firename": " WE017", "startdate": "2025-05-21T05:00:00Z", "hectares": 6320.0, "stage_of_control": "OC", "timezone": "CDT", "response_type": " FUL", "acres": 15617.0, "days_burning": 6, "startdate_clean": "May 21 at 05:00 a.m. CDT" }, "geometry": { "type": "Point", "coordinates": [ -101.325, 55.0097 ] } },
{ "type": "Feature", "properties": { "agency": "mb", "firename": " EA063", "startdate": "2025-05-15T05:00:00Z", "hectares": 1700.0, "stage_of_control": "OC", "timezone": "CDT", "response_type": " FUL", "acres": 4201.0, "days_burning": 12, "startdate_clean": "May 15 at 05:00 a.m. CDT" }, "geometry": { "type": "Point", "coordinates": [ -95.1575, 49.8594 ] } },
{ "type": "Feature", "properties": { "agency": "sk", "firename": " 25DB-BEATTY2", "startdate": "2025-05-22T22:09:05Z", "hectares": 40.0, "stage_of_control": "OC", "timezone": "CST", "response_type": " MOD", "acres": 99.0, "days_burning": 5, "startdate_clean": "May 22 at 10:09 p.m. CST" }, "geometry": { "type": "Point", "coordinates": [ -102.044, 54.8509 ] } },
{ "type": "Feature", "properties": { "agency": "mb", "firename": " EA061", "startdate": "2025-05-12T05:00:00Z", "hectares": 115100.0, "stage_of_control": "OC", "timezone": "CDT", "response_type": " MOD", "acres": 284412.0, "days_burning": 15, "startdate_clean": "May 12 at 05:00 a.m. CDT" }, "geometry": { "type": "Point", "coordinates": [ -95.6208, 50.3997 ] } },
{ "type": "Feature", "properties": { "agency": "sk", "firename": " 25DN-STRIKE", "startdate": "2025-05-07T20:00:22Z", "hectares": 1324.0, "stage_of_control": "OC", "timezone": "CST", "response_type": " FUL", "acres": 3272.0, "days_burning": 20, "startdate_clean": "May 7 at 08:00 p.m. CST" }, "geometry": { "type": "Point", "coordinates": [ -108.656, 54.5355 ] } },
{ "type": "Feature", "properties": { "agency": "sk", "firename": " 25LX-KNEE", "startdate": "2025-05-26T16:57:40Z", "hectares": 40.0, "stage_of_control": "OC", "timezone": "CST", "response_type": " FUL", "acres": 99.0, "days_burning": 1, "startdate_clean": "May 26 at 04:57 p.m. CST" }, "geometry": { "type": "Point", "coordinates": [ -106.848, 55.8351 ] } },
{ "type": "Feature", "properties": { "agency": "sk", "firename": " 25DB-WOLF", "startdate": "2025-05-19T20:02:39Z", "hectares": 6400.0, "stage_of_control": "OC", "timezone": "CST", "response_type": " MOD", "acres": 15814.0, "days_burning": 8, "startdate_clean": "May 19 at 08:02 p.m. CST" }, "geometry": { "type": "Point", "coordinates": [ -102.576, 54.633 ] } },
{ "type": "Feature", "properties": { "agency": "sk", "firename": " 25LA-PISEW", "startdate": "2025-05-21T17:54:29Z", "hectares": 51767.0, "stage_of_control": "OC", "timezone": "CST", "response_type": " FUL", "acres": 127916.0, "days_burning": 6, "startdate_clean": "May 21 at 05:54 p.m. CST" }, "geometry": { "type": "Point", "coordinates": [ -105.987, 55.1392 ] } },
{ "type": "Feature", "properties": { "agency": "sk", "firename": " 25LF-SHOE", "startdate": "2025-05-07T22:21:40Z", "hectares": 216171.0, "stage_of_control": "OC", "timezone": "CST", "response_type": " FUL", "acres": 534159.0, "days_burning": 20, "startdate_clean": "May 7 at 10:21 p.m. CST" }, "geometry": { "type": "Point", "coordinates": [ -104.858, 54.209 ] } },
{ "type": "Feature", "properties": { "agency": "sk", "firename": " 25LA-JAYSMITH", "startdate": "2025-05-20T20:57:05Z", "hectares": 26404.0, "stage_of_control": "OC", "timezone": "CST", "response_type": " MOD", "acres": 65244.0, "days_burning": 7, "startdate_clean": "May 20 at 08:57 p.m. CST" }, "geometry": { "type": "Point", "coordinates": [ -104.043, 56.0058 ] } },
{ "type": "Feature", "properties": { "agency": "ab", "firename": " SWF-085-2025", "startdate": "2025-05-27T19:16:00Z", "hectares": 1550.0, "stage_of_control": "OC", "timezone": "MDT", "response_type": " FUL", "acres": 3830.0, "days_burning": 0, "startdate_clean": "May 27 at 07:16 p.m. MDT" }, "geometry": { "type": "Point", "coordinates": [ -113.838, 56.789 ] } },
{ "type": "Feature", "properties": { "agency": "ab", "firename": " SWF-081-2025", "startdate": "2025-05-26T23:39:00Z", "hectares": 65.0, "stage_of_control": "OC", "timezone": "MDT", "response_type": " FUL", "acres": 161.0, "days_burning": 1, "startdate_clean": "May 26 at 11:39 p.m. MDT" }, "geometry": { "type": "Point", "coordinates": [ -113.558, 57.0091 ] } },
{ "type": "Feature", "properties": { "agency": "sk", "firename": " 25LX-CLIR01", "startdate": "2025-05-07T22:26:34Z", "hectares": 750.0, "stage_of_control": "OC", "timezone": "CST", "response_type": " MOD", "acres": 1853.0, "days_burning": 20, "startdate_clean": "May 7 at 10:26 p.m. CST" }, "geometry": { "type": "Point", "coordinates": [ -108.201, 54.8605 ] } },
{ "type": "Feature", "properties": { "agency": "ab", "firename": " LWF-090-2025", "startdate": "2025-05-26T22:00:00Z", "hectares": 4000.0, "stage_of_control": "OC", "timezone": "MDT", "response_type": " FUL", "acres": 9884.0, "days_burning": 1, "startdate_clean": "May 26 at 10:00 p.m. MDT" }, "geometry": { "type": "Point", "coordinates": [ -110.688, 55.1931 ] } },
{ "type": "Feature", "properties": { "agency": "sk", "firename": " 25WY-LRIR09", "startdate": "2025-05-25T01:01:53Z", "hectares": 500.0, "stage_of_control": "OC", "timezone": "CST", "response_type": " MOD", "acres": 1236.0, "days_burning": 2, "startdate_clean": "May 25 at 01:01 a.m. CST" }, "geometry": { "type": "Point", "coordinates": [ -105.935, 53.5227 ] } },
{ "type": "Feature", "properties": { "agency": "ab", "firename": " SWF-076-2025", "startdate": "2025-05-25T19:13:00Z", "hectares": 3629.0, "stage_of_control": "OC", "timezone": "MDT", "response_type": " FUL", "acres": 8967.0, "days_burning": 2, "startdate_clean": "May 25 at 07:13 p.m. MDT" }, "geometry": { "type": "Point", "coordinates": [ -115.41, 54.8061 ] } },
{ "type": "Feature", "properties": { "agency": "ab", "firename": " MWF-016-2025", "startdate": "2025-05-27T23:35:00Z", "hectares": 150.0, "stage_of_control": "OC", "timezone": "MDT", "response_type": " FUL", "acres": 371.0, "days_burning": 0, "startdate_clean": "May 27 at 11:35 p.m. MDT" }, "geometry": { "type": "Point", "coordinates": [ -112.895, 56.6335 ] } },
{ "type": "Feature", "properties": { "agency": "sk", "firename": " 25DB-PELICAN2", "startdate": "2025-05-24T07:00:56Z", "hectares": 1387.0, "stage_of_control": "OC", "timezone": "CST", "response_type": " FUL", "acres": 3427.0, "days_burning": 3, "startdate_clean": "May 24 at 07:00 a.m. CST" }, "geometry": { "type": "Point", "coordinates": [ -102.918, 55.1897 ] } },
{ "type": "Feature", "properties": { "agency": "ab", "firename": " SWF-088-2025", "startdate": "2025-05-27T20:05:00Z", "hectares": 27.8, "stage_of_control": "OC", "timezone": "MDT", "response_type": " FUL", "acres": 69.0, "days_burning": 0, "startdate_clean": "May 27 at 08:05 p.m. MDT" }, "geometry": { "type": "Point", "coordinates": [ -115.174, 55.6763 ] } },
{ "type": "Feature", "properties": { "agency": "sk", "firename": " 25DN-OLIR01", "startdate": "2025-05-05T15:20:53Z", "hectares": 1550.0, "stage_of_control": "OC", "timezone": "CST", "response_type": " MOD", "acres": 3830.0, "days_burning": 22, "startdate_clean": "May 5 at 03:20 p.m. CST" }, "geometry": { "type": "Point", "coordinates": [ -109.867, 53.634 ] } },
{ "type": "Feature", "properties": { "agency": "ab", "firename": " SWF-083-2025", "startdate": "2025-05-27T00:00:00Z", "hectares": 450.0, "stage_of_control": "OC", "timezone": "MDT", "response_type": " FUL", "acres": 1112.0, "days_burning": 1, "startdate_clean": "May 27 at 12:00 a.m. MDT" }, "geometry": { "type": "Point", "coordinates": [ -114.142, 57.1199 ] } },
{ "type": "Feature", "properties": { "agency": "ab", "firename": " EWF-030-2025", "startdate": "2025-05-25T22:49:00Z", "hectares": 250.0, "stage_of_control": "OC", "timezone": "MDT", "response_type": " FUL", "acres": 618.0, "days_burning": 2, "startdate_clean": "May 25 at 10:49 p.m. MDT" }, "geometry": { "type": "Point", "coordinates": [ -117.18, 53.1647 ] } },
{ "type": "Feature", "properties": { "agency": "on", "firename": " KEN_FIRE_020", "startdate": "2025-05-12T21:24:00Z", "hectares": 32014.8, "stage_of_control": "OC", "timezone": "GMT", "response_type": " FUL", "acres": 79109.0, "days_burning": 15, "startdate_clean": "May 12 at 09:24 p.m. GMT" }, "geometry": { "type": "Point", "coordinates": [ -95.0845, 49.7863 ] } },
{ "type": "Feature", "properties": { "agency": "pc", "firename": " 2025WB3", "startdate": "2025-05-27T18:01:37Z", "hectares": 32.0, "stage_of_control": "OC", "timezone": "MDT", "response_type": " FUL", "acres": 79.0, "days_burning": 0, "startdate_clean": "May 27 at 06:01 p.m. MDT" }, "geometry": { "type": "Point", "coordinates": [ -112.072, 59.7051 ] } },
{ "type": "Feature", "properties": { "agency": "sk", "firename": " 25WY-DITCH02", "startdate": "2025-05-26T23:57:57Z", "hectares": 1250.0, "stage_of_control": "OC", "timezone": "CST", "response_type": " FUL", "acres": 3089.0, "days_burning": 1, "startdate_clean": "May 26 at 11:57 p.m. CST" }, "geometry": { "type": "Point", "coordinates": [ -105.801, 54.4445 ] } },
{ "type": "Feature", "properties": { "agency": "ab", "firename": " SWF-092-2025", "startdate": "2025-05-27T22:53:00Z", "hectares": 115.0, "stage_of_control": "OC", "timezone": "MDT", "response_type": " FUL", "acres": 284.0, "days_burning": 0, "startdate_clean": "May 27 at 10:53 p.m. MDT" }, "geometry": { "type": "Point", "coordinates": [ -115.105, 56.3196 ] } },
{ "type": "Feature", "properties": { "agency": "ab", "firename": " SWF-089-2025", "startdate": "2025-05-27T20:50:00Z", "hectares": 113.0, "stage_of_control": "OC", "timezone": "MDT", "response_type": " FUL", "acres": 279.0, "days_burning": 0, "startdate_clean": "May 27 at 08:50 p.m. MDT" }, "geometry": { "type": "Point", "coordinates": [ -114.336, 56.7056 ] } }
]
}
